{
"type": "FeatureCollection",
"name": "waypoints",
"features": [
{ "type": "Feature", "properties": { "ele": 80.2, "time": "2026-05-19T09:05:03Z", "name": "HRDC Gymnasium", "image": "images/independencia/hrdcgymnasium.jpg" }, "geometry": { "type": "Point", "coordinates": [ 125.00177621841432, 11.236829764634614 ] } },
{ "type": "Feature", "properties": { "ele": 84.3, "time": "2026-05-19T09:05:58Z", "name": "Montejo BLDG", "image": "images/independencia/montejo.jpg" }, "geometry": { "type": "Point", "coordinates": [ 125.00140339136125, 11.236827133843262 ] } },
{ "type": "Feature", "properties": { "ele": 85.7, "time": "2026-05-19T09:06:52Z", "name": "IGP Trade Park", "image": "images/independencia/igp-ind.jpg" }, "geometry": { "type": "Point", "coordinates": [ 125.00133097171785, 11.237100736014598 ] } },
{ "type": "Feature", "properties": { "ele": 72.3, "time": "2026-05-19T09:09:30.888Z", "name": "ADMIN BLDG", "image": "images/independencia/admin.jpg" }, "geometry": { "type": "Point", "coordinates": [ 125.00132024288179, 11.237558492913092 ] } },
{ "type": "Feature", "properties": { "ele": 73.4, "time": "2026-05-19T09:10:16.643Z", "name": "Student Center", "image":"images/independencia/studentcenter.jpg" }, "geometry": { "type": "Point", "coordinates": [ 125.00169575214387, 11.23744536914945 ] } },
{ "type": "Feature", "properties": { "ele": 74.5, "time": "2026-05-19T09:13:26Z", "name": "LNU Clinic", "image": "images/independencia/clinic.jpg" }, "geometry": { "type": "Point", "coordinates": [ 125.00184595584871, 11.237961002688973 ] } },
{ "type": "Feature", "properties": { "ele": 72.2, "time": "2026-05-19T09:14:44.548Z", "name": "ORC BLDG", "image": "images/independencia/orc.jpg" }, "geometry": { "type": "Point", "coordinates": [ 125.00192373991014, 11.238421388998711 ] } },
{ "type": "Feature", "properties": { "ele": 82.5, "time": "2026-05-19T09:19:03Z", "name": "HRDC Theater (Alba Hall)", "image": "images/independencia/hrdctheater.jpg" }, "geometry": { "type": "Point", "coordinates": [ 125.00202834606172, 11.237171767305087 ] } },
{ "type": "Feature", "properties": { "ele": 80.1, "time": "2026-05-19T09:19:54Z", "name": "Humanities BLDG", "image": "images/independencia/humanities.jpg" }, "geometry": { "type": "Point", "coordinates": [ 125.00230729579927, 11.237161244152045 ] } },
{ "type": "Feature", "properties": { "ele": 79.9, "time": "2026-05-19T09:22:08Z", "name": "LNU Gym", "image": "images/independencia/lnugym.jpg" }, "geometry": { "type": "Point", "coordinates": [ 125.00210613012317, 11.236858703337818 ] } },
{ "type": "Feature", "properties": { "ele": 88.1, "time": "2026-05-19T09:24:35Z", "name": "CTE BLDG", "image": "images/independencia/cte.jpg" }, "geometry": { "type": "Point", "coordinates": [ 125.00218927860261, 11.237376968712704 ] } }
]
}

